[
    {
      "new_entry": "{\"name\": {\"en\": \"Ahorn-eubigheim\"}, \"country\": \"DE\", \"region\": \"BW\", \"identifiers\": {\"national\": \"00047\"}, \"location\": {\"latitude\": 49.4997, \"longitude\": 9.5439, \"elevation\": 338}, \"timezone\": \"Europe/Berlin\"}",
      "dupe": {
        "id": "D2880",
        "name": "Lauda-Königshofen-Heckfeld",
        "lat": 49.5522,
        "long": 9.6345
      }
    },
    {
      "new_entry": "{\"name\": {\"en\": \"Amelinghausen\"}, \"country\": \"DE\", \"region\": \"NI\", \"identifiers\": {\"national\": \"00152\"}, \"location\": {\"latitude\": 53.1268, \"longitude\": 10.2184, \"elevation\": 57}, \"timezone\": \"Europe/Berlin\"}",
      "dupe": {
        "id": "D5512",
        "name": "Rehlingen-Ehlbeck",
        "lat": 53.0859,
        "long": 10.1611
      }
    },
    {
      "new_entry": "{\"name\": {\"en\": \"Bechhofen/mittelfranken -voggendorf\"}, \"country\": \"DE\", \"region\": \"BY\", \"identifiers\": {\"national\": \"00323\"}, \"location\": {\"latitude\": 49.1626, \"longitude\": 10.5918, \"elevation\": 425}, \"timezone\": \"Europe/Berlin\"}",
      "dupe": {
        "id": "D6158",
        "name": "Weidenbach-Weiherschneidbach",
        "lat": 49.2247,
        "long": 10.6084
      }
    },
    {
      "new_entry": "{\"name\": {\"en\": \"Bischhagen\"}, \"country\": \"DE\", \"region\": \"TH\", \"identifiers\": {\"national\": \"00505\"}, \"location\": {\"latitude\": 51.4268, \"longitude\": 10.0932, \"elevation\": 332}, \"timezone\": \"Europe/Berlin\"}",
      "dupe": {
        "id": "D4135",
        "name": "Reinholterode",
        "lat": 51.4248,
        "long": 10.1898
      }
    },
    {
      "new_entry": "{\"name\": {\"en\": \"Bissingen (kl\\u00e4ranlage)\"}, \"country\": \"DE\", \"region\": \"BY\", \"identifiers\": {\"national\": \"00522\"}, \"location\": {\"latitude\": 48.7092, \"longitude\": 10.6283, \"elevation\": 425}, \"timezone\": \"Europe/Berlin\"}",
      "dupe": {
        "id": "D7319",
        "name": "Donauwörth-Osterweiler",
        "lat": 48.7374,
        "long": 10.7393
      }
    },
    {
      "new_entry": "{\"name\": {\"en\": \"Bruchm\\u00fchlbach-miesau/glan\"}, \"country\": \"DE\", \"region\": \"RP\", \"identifiers\": {\"national\": \"00730\"}, \"location\": {\"latitude\": 49.3864, \"longitude\": 7.4567, \"elevation\": 238}, \"timezone\": \"Europe/Berlin\"}",
      "dupe": {
        "id": "D1650",
        "name": "Henschtal",
        "lat": 49.4648,
        "long": 7.4111
      }
    },
    {
      "new_entry": "{\"name\": {\"en\": \"Burgbernheim\"}, \"country\": \"DE\", \"region\": \"BY\", \"identifiers\": {\"national\": \"00801\"}, \"location\": {\"latitude\": 49.4549, \"longitude\": 10.3241, \"elevation\": 331}, \"timezone\": \"Europe/Berlin\"}",
      "dupe": {
        "id": "10752",
        "name": "Illesheim",
        "lat": 49.4667,
        "long": 10.3833
      }
    },
    {
      "new_entry": "{\"name\": {\"en\": \"Deisenhofen, Kreis M\\u00fcnchen\"}, \"country\": \"DE\", \"region\": \"BY\", \"identifiers\": {\"national\": \"00933\"}, \"location\": {\"latitude\": 48.0368, \"longitude\": 11.5777, \"elevation\": 585}, \"timezone\": \"Europe/Berlin\"}",
      "dupe": {
        "id": "D7431",
        "name": "Oberhaching-Laufzorn",
        "lat": 48.013,
        "long": 11.5524
      }
    },
    {
      "new_entry": "{\"name\": {\"en\": \"Emden-nesserland\"}, \"country\": \"DE\", \"region\": \"NI\", \"identifiers\": {\"national\": \"01219\"}, \"location\": {\"latitude\": 53.3449, \"longitude\": 7.1909, \"elevation\": 5}, \"timezone\": \"Europe/Berlin\"}",
      "dupe": {
        "id": "10203",
        "name": "Emden / Hafen",
        "lat": 53.35,
        "long": 7.2
      }
    },
    {
      "new_entry": "{\"name\": {\"en\": \"Nentershausen (ka)\"}, \"country\": \"DE\", \"region\": \"RP\", \"identifiers\": {\"national\": \"01253\"}, \"location\": {\"latitude\": 50.426, \"longitude\": 7.9395, \"elevation\": 286}, \"timezone\": \"Europe/Berlin\"}",
      "dupe": {
        "id": "D3340",
        "name": "Montabaur",
        "lat": 50.4383,
        "long": 7.8061
      }
    },
    {
      "new_entry": "{\"name\": {\"en\": \"Ettlingen-ettlingenweier\"}, \"country\": \"DE\", \"region\": \"BW\", \"identifiers\": {\"national\": \"01315\"}, \"location\": {\"latitude\": 48.9246, \"longitude\": 8.3824, \"elevation\": 118}, \"timezone\": \"Europe/Berlin\"}",
      "dupe": {
        "id": "10731",
        "name": "Rheinstetten",
        "lat": 48.9736,
        "long": 8.3311
      }
    },
    {
      "new_entry": "{\"name\": {\"en\": \"Marklkofen (betriebsstelle Vilstalsee)\"}, \"country\": \"DE\", \"region\": \"BY\", \"identifiers\": {\"national\": \"01511\"}, \"location\": {\"latitude\": 48.5587, \"longitude\": 12.5719, \"elevation\": 400}, \"timezone\": \"Europe/Berlin\"}",
      "dupe": {
        "id": "D3153",
        "name": "Mamming-Schneiderberg",
        "lat": 48.6189,
        "long": 12.6233
      }
    },
    {
      "new_entry": "{\"name\": {\"en\": \"Georgensgm\\u00fcnd\"}, \"country\": \"DE\", \"region\": \"BY\", \"identifiers\": {\"national\": \"01607\"}, \"location\": {\"latitude\": 49.1934, \"longitude\": 11.0267, \"elevation\": 344}, \"timezone\": \"Europe/Berlin\"}",
      "dupe": {
        "id": "10765",
        "name": "Roth",
        "lat": 49.2167,
        "long": 11.1
      }
    },
    {
      "new_entry": "{\"name\": {\"en\": \"Gilching\"}, \"country\": \"DE\", \"region\": \"BY\", \"identifiers\": {\"national\": \"01642\"}, \"location\": {\"latitude\": 48.1085, \"longitude\": 11.2781, \"elevation\": 550}, \"timezone\": \"Europe/Berlin\"}",
      "dupe": {
        "id": "10859",
        "name": "Oberpfaffenhofen",
        "lat": 48.0833,
        "long": 11.2833
      }
    },
    {
      "new_entry": "{\"name\": {\"en\": \"Gro\\u00dfenl\\u00fcder-kleinl\\u00fcder\"}, \"country\": \"DE\", \"region\": \"HE\", \"identifiers\": {\"national\": \"01830\"}, \"location\": {\"latitude\": 50.5455, \"longitude\": 9.5175, \"elevation\": 270}, \"timezone\": \"Europe/Berlin\"}",
      "dupe": {
        "id": "10536",
        "name": "Fulda Usa  Af",
        "lat": 50.55,
        "long": 9.65
      }
    },
    {
      "new_entry": "{\"name\": {\"en\": \"Pilsting-b\\u00e4ckerm\\u00fchle\"}, \"country\": \"DE\", \"region\": \"BY\", \"identifiers\": {\"national\": \"01846\"}, \"location\": {\"latitude\": 48.6773, \"longitude\": 12.6207, \"elevation\": 344}, \"timezone\": \"Europe/Berlin\"}",
      "dupe": {
        "id": "10872",
        "name": "Gottfrieding",
        "lat": 48.6606,
        "long": 12.5403
      }
    },
    {
      "new_entry": "{\"name\": {\"en\": \"Gro\\u00dfostheim\"}, \"country\": \"DE\", \"region\": \"BY\", \"identifiers\": {\"national\": \"01851\"}, \"location\": {\"latitude\": 49.9229, \"longitude\": 9.0904, \"elevation\": 110}, \"timezone\": \"Europe/Berlin\"}",
      "dupe": {
        "id": "D4411",
        "name": "Schaafheim-Schlierbach",
        "lat": 49.9195,
        "long": 8.9671
      }
    },
    {
      "new_entry": "{\"name\": {\"en\": \"Haimhausen-ottershausen\"}, \"country\": \"DE\", \"region\": \"BY\", \"identifiers\": {\"national\": \"01938\"}, \"location\": {\"latitude\": 48.3028, \"longitude\": 11.5318, \"elevation\": 464}, \"timezone\": \"Europe/Berlin\"}",
      "dupe": {
        "id": "10868",
        "name": "Muenchen-Oberschleissheim",
        "lat": 48.25,
        "long": 11.55
      }
    },
    {
      "new_entry": "{\"name\": {\"en\": \"Halblech-trauchgau\"}, \"country\": \"DE\", \"region\": \"BY\", \"identifiers\": {\"national\": \"01950\"}, \"location\": {\"latitude\": 47.6463, \"longitude\": 10.8073, \"elevation\": 780}, \"timezone\": \"Europe/Berlin\"}",
      "dupe": {
        "id": "D4850",
        "name": "Steingaden-Lauterbach",
        "lat": 47.7112,
        "long": 10.8758
      }
    },
    {
      "new_entry": "{\"name\": {\"en\": \"Kelheim\"}, \"country\": \"DE\", \"region\": \"BY\", \"identifiers\": {\"national\": \"02550\"}, \"location\": {\"latitude\": 48.9244, \"longitude\": 11.85, \"elevation\": 350}, \"timezone\": \"Europe/Berlin\"}",
      "dupe": {
        "id": "D4185",
        "name": "Riedenburg",
        "lat": 48.9557,
        "long": 11.7278
      }
    },
    {
      "new_entry": "{\"name\": {\"en\": \"Kleinich, Kr. Bernkastel-wittlich\"}, \"country\": \"DE\", \"region\": \"RP\", \"identifiers\": {\"national\": \"02619\"}, \"location\": {\"latitude\": 49.8939, \"longitude\": 7.1885, \"elevation\": 447}, \"timezone\": \"Europe/Berlin\"}",
      "dupe": {
        "id": "10616",
        "name": "Frankfurt-Hahn Airport",
        "lat": 49.95,
        "long": 7.2667
      }
    },
    {
      "new_entry": "{\"name\": {\"en\": \"Langen (bz)\"}, \"country\": \"DE\", \"region\": \"HE\", \"identifiers\": {\"national\": \"02843\"}, \"location\": {\"latitude\": 50.0075, \"longitude\": 8.6547, \"elevation\": 125}, \"timezone\": \"Europe/Berlin\"}",
      "dupe": {
        "id": "EDFE0",
        "name": "Egelsbach / Erzhausen",
        "lat": 49.962,
        "long": 8.6447
      }
    },
    {
      "new_entry": "{\"name\": {\"en\": \"Malli\\u00df\"}, \"country\": \"DE\", \"region\": \"MV\", \"identifiers\": {\"national\": \"03148\"}, \"location\": {\"latitude\": 53.2113, \"longitude\": 11.3247, \"elevation\": 40}, \"timezone\": \"Europe/Berlin\"}",
      "dupe": {
        "id": "D3146",
        "name": "Malk Göhren",
        "lat": 53.2141,
        "long": 11.3686
      }
    },
    {
      "new_entry": "{\"name\": {\"en\": \"Markt Erlbach-hagenhofen\"}, \"country\": \"DE\", \"region\": \"BY\", \"identifiers\": {\"national\": \"03181\"}, \"location\": {\"latitude\": 49.4875, \"longitude\": 10.6277, \"elevation\": 360}, \"timezone\": \"Europe/Berlin\"}",
      "dupe": {
        "id": "D6312",
        "name": "Markt Erlbach-Mosbach",
        "lat": 49.5314,
        "long": 10.6418
      }
    },
    {
      "new_entry": "{\"name\": {\"en\": \"Moers-repelen\"}, \"country\": \"DE\", \"region\": \"NW\", \"identifiers\": {\"national\": \"03328\"}, \"location\": {\"latitude\": 51.4769, \"longitude\": 6.6101, \"elevation\": 19}, \"timezone\": \"Europe/Berlin\"}",
      "dupe": {
        "id": "D3670",
        "name": "Duisburg-Baerl",
        "lat": 51.5088,
        "long": 6.7018
      }
    },
    {
      "new_entry": "{\"name\": {\"en\": \"Nabburg (flussmeisterstelle)\"}, \"country\": \"DE\", \"region\": \"BY\", \"identifiers\": {\"national\": \"03429\"}, \"location\": {\"latitude\": 49.4497, \"longitude\": 12.1874, \"elevation\": 366}, \"timezone\": \"Europe/Berlin\"}",
      "dupe": {
        "id": "D0118",
        "name": "Altendorf",
        "lat": 49.4053,
        "long": 12.2852
      }
    },
    {
      "new_entry": "{\"name\": {\"en\": \"Neumarkt-sankt Veit (kl\\u00e4ranlage)\"}, \"country\": \"DE\", \"region\": \"BY\", \"identifiers\": {\"national\": \"03535\"}, \"location\": {\"latitude\": 48.3658, \"longitude\": 12.5211, \"elevation\": 438}, \"timezone\": \"Europe/Berlin\"}",
      "dupe": {
        "id": "10875",
        "name": "Muehldorf",
        "lat": 48.2833,
        "long": 12.5
      }
    },
    {
      "new_entry": "{\"name\": {\"en\": \"Ratscher\"}, \"country\": \"DE\", \"region\": \"TH\", \"identifiers\": {\"national\": \"04057\"}, \"location\": {\"latitude\": 50.4933, \"longitude\": 10.7847, \"elevation\": 394}, \"timezone\": \"Europe/Berlin\"}",
      "dupe": {
        "id": "D4469",
        "name": "Schleusingen",
        "lat": 50.5071,
        "long": 10.762
      }
    },
    {
      "new_entry": "{\"name\": {\"en\": \"Oberstdorf-rohrmoos\"}, \"country\": \"DE\", \"region\": \"BY\", \"identifiers\": {\"national\": \"04251\"}, \"location\": {\"latitude\": 47.4069, \"longitude\": 10.1676, \"elevation\": 1067}, \"timezone\": \"Europe/Berlin\"}",
      "dupe": {
        "id": "D0275",
        "name": "Balderschwang",
        "lat": 47.465,
        "long": 10.1043
      }
    },
    {
      "new_entry": "{\"name\": {\"en\": \"Samerberg-geisenkam\"}, \"country\": \"DE\", \"region\": \"BY\", \"identifiers\": {\"national\": \"04374\"}, \"location\": {\"latitude\": 47.7774, \"longitude\": 12.2102, \"elevation\": 687}, \"timezone\": \"Europe/Berlin\"}",
      "dupe": {
        "id": "D0205",
        "name": "Aschau-Stein",
        "lat": 47.7274,
        "long": 12.2982
      }
    },
    {
      "new_entry": "{\"name\": {\"en\": \"Schwarzach/main (kl\\u00e4rwerk)\"}, \"country\": \"DE\", \"region\": \"BY\", \"identifiers\": {\"national\": \"04603\"}, \"location\": {\"latitude\": 49.7975, \"longitude\": 10.2191, \"elevation\": 188}, \"timezone\": \"Europe/Berlin\"}",
      "dupe": {
        "id": "10669",
        "name": "Kitzingen Usa  Af",
        "lat": 49.75,
        "long": 10.2
      }
    },
    {
      "new_entry": "{\"name\": {\"en\": \"Siegenburg (kl\\u00e4ranlage)\"}, \"country\": \"DE\", \"region\": \"BY\", \"identifiers\": {\"national\": \"04694\"}, \"location\": {\"latitude\": 48.7629, \"longitude\": 11.843, \"elevation\": 380}, \"timezone\": \"Europe/Berlin\"}",
      "dupe": {
        "id": "D7075",
        "name": "Elsendorf-Horneck",
        "lat": 48.702,
        "long": 11.8493
      }
    },
    {
      "new_entry": "{\"name\": {\"en\": \"Treffelstein-witzelsm\\u00fchle\"}, \"country\": \"DE\", \"region\": \"BY\", \"identifiers\": {\"national\": \"05036\"}, \"location\": {\"latitude\": 49.4038, \"longitude\": 12.6062, \"elevation\": 470}, \"timezone\": \"Europe/Berlin\"}",
      "dupe": {
        "id": "10782",
        "name": "Waldmunchen / Hocha",
        "lat": 49.3922,
        "long": 12.6853
      }
    },
    {
      "new_entry": "{\"name\": {\"en\": \"Unterw\\u00f6ssen-hinterw\\u00f6ssen\"}, \"country\": \"DE\", \"region\": \"BY\", \"identifiers\": {\"national\": \"05171\"}, \"location\": {\"latitude\": 47.7105, \"longitude\": 12.4652, \"elevation\": 647}, \"timezone\": \"Europe/Berlin\"}",
      "dupe": {
        "id": "D5941",
        "name": "Reit im Winkl",
        "lat": 47.6754,
        "long": 12.4698
      }
    },
    {
      "new_entry": "{\"name\": {\"en\": \"Vellberg-kleinaltdorf\"}, \"country\": \"DE\", \"region\": \"BW\", \"identifiers\": {\"national\": \"05206\"}, \"location\": {\"latitude\": 49.1186, \"longitude\": 9.8983, \"elevation\": 396}, \"timezone\": \"Europe/Berlin\"}",
      "dupe": {
        "id": "EDTY0",
        "name": "Schwaebisch Hall / Schwabisch Hall / Schwabish Hall / Altenhausen",
        "lat": 49.118,
        "long": 9.7775
      }
    },
    {
      "new_entry": "{\"name\": {\"en\": \"Wilhelmsdorf/mittelfranken\"}, \"country\": \"DE\", \"region\": \"BY\", \"identifiers\": {\"national\": \"05573\"}, \"location\": {\"latitude\": 49.5664, \"longitude\": 10.7404, \"elevation\": 358}, \"timezone\": \"Europe/Berlin\"}",
      "dupe": {
        "id": "D2860",
        "name": "Langenzenn",
        "lat": 49.5075,
        "long": 10.7884
      }
    },
    {
      "new_entry": "{\"name\": {\"en\": \"Windsheim, Bad\"}, \"country\": \"DE\", \"region\": \"BY\", \"identifiers\": {\"national\": \"05600\"}, \"location\": {\"latitude\": 49.5141, \"longitude\": 10.4231, \"elevation\": 310}, \"timezone\": \"Europe/Berlin\"}",
      "dupe": {
        "id": "10752",
        "name": "Illesheim",
        "lat": 49.4667,
        "long": 10.3833
      }
    },
    {
      "new_entry": "{\"name\": {\"en\": \"Wolfschlugen\"}, \"country\": \"DE\", \"region\": \"BW\", \"identifiers\": {\"national\": \"05678\"}, \"location\": {\"latitude\": 48.6535, \"longitude\": 9.2976, \"elevation\": 380}, \"timezone\": \"Europe/Berlin\"}",
      "dupe": {
        "id": "10738",
        "name": "Stuttgart-Echterdingen",
        "lat": 48.6833,
        "long": 9.2167
      }
    },
    {
      "new_entry": "{\"name\": {\"en\": \"Tornau Bei Stendal\"}, \"country\": \"DE\", \"region\": \"ST\", \"identifiers\": {\"national\": \"05961\"}, \"location\": {\"latitude\": 52.580799999999996, \"longitude\": 11.7871, \"elevation\": 32}, \"timezone\": \"Europe/Berlin\"}",
      "dupe": {
        "id": "D6273",
        "name": "Demker",
        "lat": 52.5075,
        "long": 11.8551
      }
    },
    {
      "new_entry": "{\"name\": {\"en\": \"Ilshofen\"}, \"country\": \"DE\", \"region\": \"BW\", \"identifiers\": {\"national\": \"05988\"}, \"location\": {\"latitude\": 49.1638, \"longitude\": 9.9162, \"elevation\": 415}, \"timezone\": \"Europe/Berlin\"}",
      "dupe": {
        "id": "D2575",
        "name": "Kirchberg/Jagst-Herboldshausen",
        "lat": 49.1804,
        "long": 9.98
      }
    },
    {
      "new_entry": "{\"name\": {\"en\": \"Rudersberg-michelau\"}, \"country\": \"DE\", \"region\": \"BW\", \"identifiers\": {\"national\": \"05992\"}, \"location\": {\"latitude\": 48.853, \"longitude\": 9.5365, \"elevation\": 266}, \"timezone\": \"Europe/Berlin\"}",
      "dupe": {
        "id": "D0510",
        "name": "Winterbach/Remstal",
        "lat": 48.8059,
        "long": 9.5046
      }
    },
    {
      "new_entry": "{\"name\": {\"en\": \"Vogt\"}, \"country\": \"DE\", \"region\": \"BW\", \"identifiers\": {\"national\": \"05993\"}, \"location\": {\"latitude\": 47.7595, \"longitude\": 9.7724, \"elevation\": 653}, \"timezone\": \"Europe/Berlin\"}",
      "dupe": {
        "id": "D7382",
        "name": "Wangen/Allgäu-Schwaderberg",
        "lat": 47.7095,
        "long": 9.8659
      }
    },
    {
      "new_entry": "{\"name\": {\"en\": \"V\\u00f6hrenbach\"}, \"country\": \"DE\", \"region\": \"BW\", \"identifiers\": {\"national\": \"05994\"}, \"location\": {\"latitude\": 48.0277, \"longitude\": 8.2896, \"elevation\": 968}, \"timezone\": \"Europe/Berlin\"}",
      "dupe": {
        "id": "D1176",
        "name": "Eisenbach",
        "lat": 47.9634,
        "long": 8.2693
      }
    },
    {
      "new_entry": "{\"name\": {\"en\": \"Recklinghausen-reitwinkel\"}, \"country\": \"DE\", \"region\": \"NW\", \"identifiers\": {\"national\": \"06044\"}, \"location\": {\"latitude\": 51.5733, \"longitude\": 7.2056000000000004, \"elevation\": 48}, \"timezone\": \"Europe/Berlin\"}",
      "dupe": {
        "id": "D1595",
        "name": "Gelsenkirchen-Buer",
        "lat": 51.5762,
        "long": 7.0652
      }
    },
    {
      "new_entry": "{\"name\": {\"en\": \"Bedburg-grottenherten\"}, \"country\": \"DE\", \"region\": \"NW\", \"identifiers\": {\"national\": \"06048\"}, \"location\": {\"latitude\": 50.9981, \"longitude\": 6.4925, \"elevation\": 90}, \"timezone\": \"Europe/Berlin\"}",
      "dupe": {
        "id": "D7378",
        "name": "Bedburg-Weiler Hohenholz",
        "lat": 51.0149,
        "long": 6.5173
      }
    },
    {
      "new_entry": "{\"name\": {\"en\": \"Euskirchen-roitzheim\"}, \"country\": \"DE\", \"region\": \"NW\", \"identifiers\": {\"national\": \"06049\"}, \"location\": {\"latitude\": 50.65, \"longitude\": 6.8100000000000005, \"elevation\": 144}, \"timezone\": \"Europe/Berlin\"}",
      "dupe": {
        "id": "D1327",
        "name": "Weilerswist-Lommersum",
        "lat": 50.7119,
        "long": 6.7905
      }
    },
    {
      "new_entry": "{\"name\": {\"en\": \"Weilerswist\"}, \"country\": \"DE\", \"region\": \"NW\", \"identifiers\": {\"national\": \"06052\"}, \"location\": {\"latitude\": 50.7636, \"longitude\": 6.8383, \"elevation\": 111}, \"timezone\": \"Europe/Berlin\"}",
      "dupe": {
        "id": "D1327",
        "name": "Weilerswist-Lommersum",
        "lat": 50.7119,
        "long": 6.7905
      }
    },
    {
      "new_entry": "{\"name\": {\"en\": \"Nettersheim-zingsheim\"}, \"country\": \"DE\", \"region\": \"NW\", \"identifiers\": {\"national\": \"06053\"}, \"location\": {\"latitude\": 50.5083, \"longitude\": 6.6611, \"elevation\": 550}, \"timezone\": \"Europe/Berlin\"}",
      "dupe": {
        "id": "D2497",
        "name": "Kall-Sistig",
        "lat": 50.5014,
        "long": 6.5264
      }
    },
    {
      "new_entry": "{\"name\": {\"en\": \"Rheinhausen\"}, \"country\": \"DE\", \"region\": \"NW\", \"identifiers\": {\"national\": \"06054\"}, \"location\": {\"latitude\": 51.4247, \"longitude\": 6.7128, \"elevation\": 27}, \"timezone\": \"Europe/Berlin\"}",
      "dupe": {
        "id": "D3670",
        "name": "Duisburg-Baerl",
        "lat": 51.5088,
        "long": 6.7018
      }
    },
    {
      "new_entry": "{\"name\": {\"en\": \"Xanten-l\\u00fcttingen\"}, \"country\": \"DE\", \"region\": \"NW\", \"identifiers\": {\"national\": \"06055\"}, \"location\": {\"latitude\": 51.667, \"longitude\": 6.4714, \"elevation\": 19}, \"timezone\": \"Europe/Berlin\"}",
      "dupe": {
        "id": "D5733",
        "name": "Xanten",
        "lat": 51.697,
        "long": 6.3974
      }
    },
    {
      "new_entry": "{\"name\": {\"en\": \"Burscheid\"}, \"country\": \"DE\", \"region\": \"NW\", \"identifiers\": {\"national\": \"06058\"}, \"location\": {\"latitude\": 51.0877, \"longitude\": 7.1005, \"elevation\": 180}, \"timezone\": \"Europe/Berlin\"}",
      "dupe": {
        "id": "D4741",
        "name": "Solingen-Hohenscheid",
        "lat": 51.14,
        "long": 7.093
      }
    },
    {
      "new_entry": "{\"name\": {\"en\": \"Wermelskirchen-dabringhausen\"}, \"country\": \"DE\", \"region\": \"NW\", \"identifiers\": {\"national\": \"06060\"}, \"location\": {\"latitude\": 51.0813, \"longitude\": 7.1845, \"elevation\": 161}, \"timezone\": \"Europe/Berlin\"}",
      "dupe": {
        "id": "D4741",
        "name": "Solingen-Hohenscheid",
        "lat": 51.14,
        "long": 7.093
      }
    },
    {
      "new_entry": "{\"name\": {\"en\": \"Kierspe-st\\u00f6cken\"}, \"country\": \"DE\", \"region\": \"NW\", \"identifiers\": {\"national\": \"06061\"}, \"location\": {\"latitude\": 51.1062, \"longitude\": 7.5646, \"elevation\": 360}, \"timezone\": \"Europe/Berlin\"}",
      "dupe": {
        "id": "D3713",
        "name": "Meinerzhagen-Redlendorf",
        "lat": 51.0899,
        "long": 7.629
      }
    },
    {
      "new_entry": "{\"name\": {\"en\": \"Kerpen\"}, \"country\": \"DE\", \"region\": \"NW\", \"identifiers\": {\"national\": \"06067\"}, \"location\": {\"latitude\": 50.8825, \"longitude\": 6.6989, \"elevation\": 73}, \"timezone\": \"Europe/Berlin\"}",
      "dupe": {
        "id": "10502",
        "name": "Noervenich",
        "lat": 50.8333,
        "long": 6.6667
      }
    },
    {
      "new_entry": "{\"name\": {\"en\": \"Steingaden-riesen\"}, \"country\": \"DE\", \"region\": \"BY\", \"identifiers\": {\"national\": \"06169\"}, \"location\": {\"latitude\": 47.761, \"longitude\": 10.8601, \"elevation\": 761}, \"timezone\": \"Europe/Berlin\"}",
      "dupe": {
        "id": "D4850",
        "name": "Steingaden-Lauterbach",
        "lat": 47.7112,
        "long": 10.8758
      }
    },
    {
      "new_entry": "{\"name\": {\"en\": \"Mallersdorf-pfaffenberg\"}, \"country\": \"DE\", \"region\": \"BY\", \"identifiers\": {\"national\": \"06182\"}, \"location\": {\"latitude\": 48.7757, \"longitude\": 12.1743, \"elevation\": 404}, \"timezone\": \"Europe/Berlin\"}",
      "dupe": {
        "id": "D3147",
        "name": "Mallersdorf-Pfaffenberg/Niederbayern",
        "lat": 48.7726,
        "long": 12.2177
      }
    },
    {
      "new_entry": "{\"name\": {\"en\": \"M\\u00fclheim-k\\u00e4rlich\"}, \"country\": \"DE\", \"region\": \"RP\", \"identifiers\": {\"national\": \"06242\"}, \"location\": {\"latitude\": 50.4088, \"longitude\": 7.489, \"elevation\": 64}, \"timezone\": \"Europe/Berlin\"}",
      "dupe": {
        "id": "D0161",
        "name": "Andernach",
        "lat": 50.4237,
        "long": 7.4202
      }
    },
    {
      "new_entry": "{\"name\": {\"en\": \"Philippsburg Kkw\"}, \"country\": \"DE\", \"region\": \"BW\", \"identifiers\": {\"national\": \"06243\"}, \"location\": {\"latitude\": 49.2506, \"longitude\": 8.4422, \"elevation\": 96}, \"timezone\": \"Europe/Berlin\"}",
      "dupe": {
        "id": "D5275",
        "name": "Waghäusel-Kirrlach",
        "lat": 49.2445,
        "long": 8.5374
      }
    },
    {
      "new_entry": "{\"name\": {\"en\": \"Waldshut Kkw\"}, \"country\": \"DE\", \"region\": \"BW\", \"identifiers\": {\"national\": \"06246\"}, \"location\": {\"latitude\": 47.6213, \"longitude\": 8.2167, \"elevation\": 368}, \"timezone\": \"Europe/Berlin\"}",
      "dupe": {
        "id": "06666",
        "name": "Leibstadt",
        "lat": 47.5972,
        "long": 8.1883
      }
    },
    {
      "new_entry": "{\"name\": {\"en\": \"Dogern (leibstadt)\"}, \"country\": \"DE\", \"region\": \"BW\", \"identifiers\": {\"national\": \"06247\"}, \"location\": {\"latitude\": 47.6078, \"longitude\": 8.1813, \"elevation\": 307}, \"timezone\": \"Europe/Berlin\"}",
      "dupe": {
        "id": "06666",
        "name": "Leibstadt",
        "lat": 47.5972,
        "long": 8.1883
      }
    },
    {
      "new_entry": "{\"name\": {\"en\": \"R\\u00f6dental-sch\\u00f6nst\\u00e4dt (speicher)\"}, \"country\": \"DE\", \"region\": \"BY\", \"identifiers\": {\"national\": \"06249\"}, \"location\": {\"latitude\": 50.3485, \"longitude\": 11.0313, \"elevation\": 350}, \"timezone\": \"Europe/Berlin\"}",
      "dupe": {
        "id": "D0867",
        "name": "Lautertal-Oberlauter",
        "lat": 50.3066,
        "long": 10.9679
      }
    },
    {
      "new_entry": "{\"name\": {\"en\": \"Rothsee Bei Allersberg\"}, \"country\": \"DE\", \"region\": \"BY\", \"identifiers\": {\"national\": \"06252\"}, \"location\": {\"latitude\": 49.2105, \"longitude\": 11.1843, \"elevation\": 376}, \"timezone\": \"Europe/Berlin\"}",
      "dupe": {
        "id": "10765",
        "name": "Roth",
        "lat": 49.2167,
        "long": 11.1
      }
    },
    {
      "new_entry": "{\"name\": {\"en\": \"A\\u00dfling\"}, \"country\": \"DE\", \"region\": \"BY\", \"identifiers\": {\"national\": \"06279\"}, \"location\": {\"latitude\": 47.9869, \"longitude\": 11.9942, \"elevation\": 500}, \"timezone\": \"Europe/Berlin\"}",
      "dupe": {
        "id": "D1844",
        "name": "Feldkirchen-Westerham-Lenzmühle",
        "lat": 47.9411,
        "long": 11.9004
      }
    },
    {
      "new_entry": "{\"name\": {\"en\": \"Herrieden (kl\\u00e4ranlage)\"}, \"country\": \"DE\", \"region\": \"BY\", \"identifiers\": {\"national\": \"06284\"}, \"location\": {\"latitude\": 49.2289, \"longitude\": 10.5044, \"elevation\": 420}, \"timezone\": \"Europe/Berlin\"}",
      "dupe": {
        "id": "D6158",
        "name": "Weidenbach-Weiherschneidbach",
        "lat": 49.2247,
        "long": 10.6084
      }
    },
    {
      "new_entry": "{\"name\": {\"en\": \"Ampfing (kl\\u00e4ranlage)\"}, \"country\": \"DE\", \"region\": \"BY\", \"identifiers\": {\"national\": \"06286\"}, \"location\": {\"latitude\": 48.2612, \"longitude\": 12.4292, \"elevation\": 400}, \"timezone\": \"Europe/Berlin\"}",
      "dupe": {
        "id": "10875",
        "name": "Muehldorf",
        "lat": 48.2833,
        "long": 12.5
      }
    },
    {
      "new_entry": "{\"name\": {\"en\": \"Lenggries (sylvenstein)\"}, \"country\": \"DE\", \"region\": \"BY\", \"identifiers\": {\"national\": \"06293\"}, \"location\": {\"latitude\": 47.5899, \"longitude\": 11.5504, \"elevation\": 737}, \"timezone\": \"Europe/Berlin\"}",
      "dupe": {
        "id": "D6257",
        "name": "Jachenau-Tannern",
        "lat": 47.6279,
        "long": 11.5166
      }
    },
    {
      "new_entry": "{\"name\": {\"en\": \"Moos,kr. Deggendorf-maxm\\u00fchle\"}, \"country\": \"DE\", \"region\": \"BY\", \"identifiers\": {\"national\": \"06296\"}, \"location\": {\"latitude\": 48.7751, \"longitude\": 12.9578, \"elevation\": 320}, \"timezone\": \"Europe/Berlin\"}",
      "dupe": {
        "id": "D6161",
        "name": "Osterhofen-Thundorf",
        "lat": 48.7576,
        "long": 13.0131
      }
    },
    {
      "new_entry": "{\"name\": {\"en\": \"Pleiskirchen\"}, \"country\": \"DE\", \"region\": \"BY\", \"identifiers\": {\"national\": \"06297\"}, \"location\": {\"latitude\": 48.3014, \"longitude\": 12.6025, \"elevation\": 420}, \"timezone\": \"Europe/Berlin\"}",
      "dupe": {
        "id": "10875",
        "name": "Muehldorf",
        "lat": 48.2833,
        "long": 12.5
      }
    },
    {
      "new_entry": "{\"name\": {\"en\": \"Pl\\u00f6\\u00dfberg-liebenstein (speicher)\"}, \"country\": \"DE\", \"region\": \"BY\", \"identifiers\": {\"national\": \"06298\"}, \"location\": {\"latitude\": 49.8128, \"longitude\": 12.3287, \"elevation\": 530}, \"timezone\": \"Europe/Berlin\"}",
      "dupe": {
        "id": "D5046",
        "name": "Tirschenreuth-Lodermühl",
        "lat": 49.8576,
        "long": 12.3542
      }
    },
    {
      "new_entry": "{\"name\": {\"en\": \"Dannstadt-schauernheim\"}, \"country\": \"DE\", \"region\": \"RP\", \"identifiers\": {\"national\": \"06317\"}, \"location\": {\"latitude\": 49.4371, \"longitude\": 8.3133, \"elevation\": 97}, \"timezone\": \"Europe/Berlin\"}",
      "dupe": {
        "id": "EDRF0",
        "name": "Bad Durkheim / Ungstein",
        "lat": 49.4742,
        "long": 8.1972
      }
    },
    {
      "new_entry": "{\"name\": {\"en\": \"Kusel (kl\\u00e4ranlage)\"}, \"country\": \"DE\", \"region\": \"RP\", \"identifiers\": {\"national\": \"06322\"}, \"location\": {\"latitude\": 49.5414, \"longitude\": 7.4299, \"elevation\": 215}, \"timezone\": \"Europe/Berlin\"}",
      "dupe": {
        "id": "D1650",
        "name": "Henschtal",
        "lat": 49.4648,
        "long": 7.4111
      }
    },
    {
      "new_entry": "{\"name\": {\"en\": \"Sprendlingen\"}, \"country\": \"DE\", \"region\": \"RP\", \"identifiers\": {\"national\": \"06329\"}, \"location\": {\"latitude\": 49.8559, \"longitude\": 7.9806, \"elevation\": 128}, \"timezone\": \"Europe/Berlin\"}",
      "dupe": {
        "id": "10627",
        "name": "Bad Kreuznach",
        "lat": 49.85,
        "long": 7.8833
      }
    },
    {
      "new_entry": "{\"name\": {\"en\": \"Strohn\"}, \"country\": \"DE\", \"region\": \"RP\", \"identifiers\": {\"national\": \"06330\"}, \"location\": {\"latitude\": 50.1153, \"longitude\": 6.9215, \"elevation\": 394}, \"timezone\": \"Europe/Berlin\"}",
      "dupe": {
        "id": "D3155",
        "name": "Manderscheid-Sonnenhof",
        "lat": 50.1015,
        "long": 6.8009
      }
    },
    {
      "new_entry": "{\"name\": {\"en\": \"Die\\u00dfen/ammersee-dettenschwang\"}, \"country\": \"DE\", \"region\": \"BY\", \"identifiers\": {\"national\": \"06341\"}, \"location\": {\"latitude\": 47.9603, \"longitude\": 11.0136, \"elevation\": 658}, \"timezone\": \"Europe/Berlin\"}",
      "dupe": {
        "id": "D5227",
        "name": "Vilgertshofen-Pflugdorf",
        "lat": 47.9688,
        "long": 10.9156
      }
    },
    {
      "new_entry": "{\"name\": {\"en\": \"Aulendorf-haslach\"}, \"country\": \"DE\", \"region\": \"BW\", \"identifiers\": {\"national\": \"07135\"}, \"location\": {\"latitude\": 47.9655, \"longitude\": 9.6804, \"elevation\": 565}, \"timezone\": \"Europe/Berlin\"}",
      "dupe": {
        "id": "D5810",
        "name": "Aulendorf-Blönried",
        "lat": 47.9261,
        "long": 9.5926
      }
    },
    {
      "new_entry": "{\"name\": {\"en\": \"Altshausen\"}, \"country\": \"DE\", \"region\": \"BW\", \"identifiers\": {\"national\": \"07224\"}, \"location\": {\"latitude\": 47.9324, \"longitude\": 9.5512, \"elevation\": 570}, \"timezone\": \"Europe/Berlin\"}",
      "dupe": {
        "id": "D5810",
        "name": "Aulendorf-Blönried",
        "lat": 47.9261,
        "long": 9.5926
      }
    },
    {
      "new_entry": "{\"name\": {\"en\": \"Ki\\u00dflegg, Kr. Ravensburg\"}, \"country\": \"DE\", \"region\": \"BW\", \"identifiers\": {\"national\": \"07226\"}, \"location\": {\"latitude\": 47.7777, \"longitude\": 9.887, \"elevation\": 640}, \"timezone\": \"Europe/Berlin\"}",
      "dupe": {
        "id": "D7382",
        "name": "Wangen/Allgäu-Schwaderberg",
        "lat": 47.7095,
        "long": 9.8659
      }
    },
    {
      "new_entry": "{\"name\": {\"en\": \"Rot Am See\"}, \"country\": \"DE\", \"region\": \"BW\", \"identifiers\": {\"national\": \"07233\"}, \"location\": {\"latitude\": 49.257, \"longitude\": 10.0152, \"elevation\": 415}, \"timezone\": \"Europe/Berlin\"}",
      "dupe": {
        "id": "D2575",
        "name": "Kirchberg/Jagst-Herboldshausen",
        "lat": 49.1804,
        "long": 9.98
      }
    },
    {
      "new_entry": "{\"name\": {\"en\": \"Schiltach/ Kinzig\"}, \"country\": \"DE\", \"region\": \"BW\", \"identifiers\": {\"national\": \"07234\"}, \"location\": {\"latitude\": 48.2934, \"longitude\": 8.3066, \"elevation\": 310}, \"timezone\": \"Europe/Berlin\"}",
      "dupe": {
        "id": "D5664",
        "name": "Wolfach",
        "lat": 48.2953,
        "long": 8.2391
      }
    },
    {
      "new_entry": "{\"name\": {\"en\": \"Vaihingen/ Enz\"}, \"country\": \"DE\", \"region\": \"BW\", \"identifiers\": {\"national\": \"07238\"}, \"location\": {\"latitude\": 48.9243, \"longitude\": 8.9536, \"elevation\": 200}, \"timezone\": \"Europe/Berlin\"}",
      "dupe": {
        "id": "10736",
        "name": "Muehlacker",
        "lat": 48.9667,
        "long": 8.8667
      }
    },
    {
      "new_entry": "{\"name\": {\"en\": \"Welzheim (kl\\u00e4ranlage)\"}, \"country\": \"DE\", \"region\": \"BW\", \"identifiers\": {\"national\": \"07241\"}, \"location\": {\"latitude\": 48.8707, \"longitude\": 9.6442, \"elevation\": 470}, \"timezone\": \"Europe/Berlin\"}",
      "dupe": {
        "id": "10747",
        "name": "Kaisersbach-Cronhütte",
        "lat": 48.9181,
        "long": 9.6883
      }
    },
    {
      "new_entry": "{\"name\": {\"en\": \"Trier-irsch\"}, \"country\": \"DE\", \"region\": \"RP\", \"identifiers\": {\"national\": \"07433\"}, \"location\": {\"latitude\": 49.726, \"longitude\": 6.6957, \"elevation\": 240}, \"timezone\": \"Europe/Berlin\"}",
      "dupe": {
        "id": "10609",
        "name": "Trier-Petrisberg",
        "lat": 49.75,
        "long": 6.6667
      }
    },
    {
      "new_entry": "{\"name\": {\"en\": \"Crailsheim/jagst\"}, \"country\": \"DE\", \"region\": \"BW\", \"identifiers\": {\"national\": \"07491\"}, \"location\": {\"latitude\": 49.154, \"longitude\": 10.0632, \"elevation\": 395}, \"timezone\": \"Europe/Berlin\"}",
      "dupe": {
        "id": "D2575",
        "name": "Kirchberg/Jagst-Herboldshausen",
        "lat": 49.1804,
        "long": 9.98
      }
    },
    {
      "new_entry": "{\"name\": {\"en\": \"Rosenberg\"}, \"country\": \"DE\", \"region\": \"BW\", \"identifiers\": {\"national\": \"07496\"}, \"location\": {\"latitude\": 49.0137, \"longitude\": 10.0477, \"elevation\": 460}, \"timezone\": \"Europe/Berlin\"}",
      "dupe": {
        "id": "D1197",
        "name": "Ellwangen-Rindelbach",
        "lat": 48.9895,
        "long": 10.1312
      }
    },
    {
      "new_entry": "{\"name\": {\"en\": \"Boecke\"}, \"country\": \"DE\", \"region\": \"BB\", \"identifiers\": {\"national\": \"13662\"}, \"location\": {\"latitude\": 52.3031, \"longitude\": 12.4029, \"elevation\": 37}, \"timezone\": \"Europe/Berlin\"}",
      "dupe": {
        "id": "D5684",
        "name": "Wollin",
        "lat": 52.2813,
        "long": 12.458
      }
    },
    {
      "new_entry": "{\"name\": {\"en\": \"Gerolstein/kyll\"}, \"country\": \"DE\", \"region\": \"RP\", \"identifiers\": {\"national\": \"13968\"}, \"location\": {\"latitude\": 50.239, \"longitude\": 6.6611, \"elevation\": 435}, \"timezone\": \"Europe/Berlin\"}",
      "dupe": {
        "id": "D2213",
        "name": "Lissendorf",
        "lat": 50.3105,
        "long": 6.6236
      }
    },
    {
      "new_entry": "{\"name\": {\"en\": \"Mainz-marienborn\"}, \"country\": \"DE\", \"region\": \"RP\", \"identifiers\": {\"national\": \"14007\"}, \"location\": {\"latitude\": 49.9596, \"longitude\": 8.236, \"elevation\": 164}, \"timezone\": \"Europe/Berlin\"}",
      "dupe": {
        "id": "D3137",
        "name": "Mainz / Lerchenberg ",
        "lat": 49.9656,
        "long": 8.2139
      }
    },
    {
      "new_entry": "{\"name\": {\"en\": \"Oppenheim/ Rhein\"}, \"country\": \"DE\", \"region\": \"RP\", \"identifiers\": {\"national\": \"14013\"}, \"location\": {\"latitude\": 49.8464, \"longitude\": 8.346, \"elevation\": 128}, \"timezone\": \"Europe/Berlin\"}",
      "dupe": {
        "id": "D6100",
        "name": "Hahnheim",
        "lat": 49.8626,
        "long": 8.2311
      }
    },
    {
      "new_entry": "{\"name\": {\"en\": \"Kettenheim (eichhof)\"}, \"country\": \"DE\", \"region\": \"RP\", \"identifiers\": {\"national\": \"14014\"}, \"location\": {\"latitude\": 49.7271, \"longitude\": 8.1168, \"elevation\": 214}, \"timezone\": \"Europe/Berlin\"}",
      "dupe": {
        "id": "D0150",
        "name": "Alzey",
        "lat": 49.7273,
        "long": 8.1164
      }
    },
    {
      "new_entry": "{\"name\": {\"en\": \"Kleinniedesheim\"}, \"country\": \"DE\", \"region\": \"RP\", \"identifiers\": {\"national\": \"14016\"}, \"location\": {\"latitude\": 49.5871, \"longitude\": 8.3414, \"elevation\": 98}, \"timezone\": \"Europe/Berlin\"}",
      "dupe": {
        "id": "EDFV0",
        "name": "Worms / Nonnenhof",
        "lat": 49.6075,
        "long": 8.3678
      }
    },
    {
      "new_entry": "{\"name\": {\"en\": \"Herxheimweyher\"}, \"country\": \"DE\", \"region\": \"RP\", \"identifiers\": {\"national\": \"14017\"}, \"location\": {\"latitude\": 49.1581, \"longitude\": 8.2536, \"elevation\": 127}, \"timezone\": \"Europe/Berlin\"}",
      "dupe": {
        "id": "D4310",
        "name": "Rülzheim",
        "lat": 49.1609,
        "long": 8.3009
      }
    },
    {
      "new_entry": "{\"name\": {\"en\": \"Lustadt\"}, \"country\": \"DE\", \"region\": \"RP\", \"identifiers\": {\"national\": \"14019\"}, \"location\": {\"latitude\": 49.2449, \"longitude\": 8.2912, \"elevation\": 115}, \"timezone\": \"Europe/Berlin\"}",
      "dupe": {
        "id": "D4310",
        "name": "Rülzheim",
        "lat": 49.1609,
        "long": 8.3009
      }
    },
    {
      "new_entry": "{\"name\": {\"en\": \"M\\u00fcnstermaifeld, Kr. Mayen-koblenz\"}, \"country\": \"DE\", \"region\": \"RP\", \"identifiers\": {\"national\": \"14020\"}, \"location\": {\"latitude\": 50.2558, \"longitude\": 7.3535, \"elevation\": 195}, \"timezone\": \"Europe/Berlin\"}",
      "dupe": {
        "id": "D3969",
        "name": "Polch, Kr. Mayen-Koblenz",
        "lat": 50.3051,
        "long": 7.3108
      }
    },
    {
      "new_entry": "{\"name\": {\"en\": \"Dienstweiler\"}, \"country\": \"DE\", \"region\": \"RP\", \"identifiers\": {\"national\": \"14022\"}, \"location\": {\"latitude\": 49.6353, \"longitude\": 7.2105, \"elevation\": 461}, \"timezone\": \"Europe/Berlin\"}",
      "dupe": {
        "id": "10619",
        "name": "Baumholder United States Army Air Field",
        "lat": 49.65,
        "long": 7.3
      }
    },
    {
      "new_entry": "{\"name\": {\"en\": \"Wittlich, Kreisstadt\"}, \"country\": \"DE\", \"region\": \"RP\", \"identifiers\": {\"national\": \"14024\"}, \"location\": {\"latitude\": 49.9678, \"longitude\": 6.8593, \"elevation\": 197}, \"timezone\": \"Europe/Berlin\"}",
      "dupe": {
        "id": "D5635",
        "name": "Wittlich",
        "lat": 49.9617,
        "long": 6.9287
      }
    },
    {
      "new_entry": "{\"name\": {\"en\": \"Isert\"}, \"country\": \"DE\", \"region\": \"RP\", \"identifiers\": {\"national\": \"14026\"}, \"location\": {\"latitude\": 50.7316, \"longitude\": 7.7003, \"elevation\": 296}, \"timezone\": \"Europe/Berlin\"}",
      "dupe": {
        "id": "D2211",
        "name": "Hilgenroth",
        "lat": 50.7371,
        "long": 7.6528
      }
    },
    {
      "new_entry": "{\"name\": {\"en\": \"Wahlbach/hunsr.\"}, \"country\": \"DE\", \"region\": \"RP\", \"identifiers\": {\"national\": \"14029\"}, \"location\": {\"latitude\": 50.0005, \"longitude\": 7.5928, \"elevation\": 418}, \"timezone\": \"Europe/Berlin\"}",
      "dupe": {
        "id": "D4709",
        "name": "Simmern-Wahlbach",
        "lat": 49.9996,
        "long": 7.5981
      }
    },
    {
      "new_entry": "{\"name\": {\"en\": \"Morlautern\"}, \"country\": \"DE\", \"region\": \"RP\", \"identifiers\": {\"national\": \"14030\"}, \"location\": {\"latitude\": 49.4716, \"longitude\": 7.7620000000000005, \"elevation\": 307}, \"timezone\": \"Europe/Berlin\"}",
      "dupe": {
        "id": "ETED0",
        "name": "Kaiserslautern",
        "lat": 49.4478,
        "long": 7.8394
      }
    },
    {
      "new_entry": "{\"name\": {\"en\": \"Heimbach-weis/rhein\"}, \"country\": \"DE\", \"region\": \"RP\", \"identifiers\": {\"national\": \"14032\"}, \"location\": {\"latitude\": 50.4468, \"longitude\": 7.5357, \"elevation\": 78}, \"timezone\": \"Europe/Berlin\"}",
      "dupe": {
        "id": "10515",
        "name": "Bendorf",
        "lat": 50.4167,
        "long": 7.5833
      }
    },
    {
      "new_entry": "{\"name\": {\"en\": \"Avelsbach\"}, \"country\": \"DE\", \"region\": \"RP\", \"identifiers\": {\"national\": \"14033\"}, \"location\": {\"latitude\": 49.7542, \"longitude\": 6.6932, \"elevation\": 248}, \"timezone\": \"Europe/Berlin\"}",
      "dupe": {
        "id": "10609",
        "name": "Trier-Petrisberg",
        "lat": 49.75,
        "long": 6.6667
      }
    },
    {
      "new_entry": "{\"name\": {\"en\": \"Wiersdorf/stausee Bitburg\"}, \"country\": \"DE\", \"region\": \"RP\", \"identifiers\": {\"national\": \"14037\"}, \"location\": {\"latitude\": 50.0066, \"longitude\": 6.4587, \"elevation\": 325}, \"timezone\": \"Europe/Berlin\"}",
      "dupe": {
        "id": "D1964",
        "name": "Olsdorf",
        "lat": 49.9445,
        "long": 6.3821
      }
    },
    {
      "new_entry": "{\"name\": {\"en\": \"Leimersdorf-nierendorf\"}, \"country\": \"DE\", \"region\": \"RP\", \"identifiers\": {\"national\": \"14042\"}, \"location\": {\"latitude\": 50.5849, \"longitude\": 7.1455, \"elevation\": 150}, \"timezone\": \"Europe/Berlin\"}",
      "dupe": {
        "id": "D3490",
        "name": "Neuenahr, Bad-Ahrweiler",
        "lat": 50.5346,
        "long": 7.0853
      }
    },
    {
      "new_entry": "{\"name\": {\"en\": \"Ingelheim/rhein\"}, \"country\": \"DE\", \"region\": \"RP\", \"identifiers\": {\"national\": \"14044\"}, \"location\": {\"latitude\": 49.9747, \"longitude\": 8.0986, \"elevation\": 219}, \"timezone\": \"Europe/Berlin\"}",
      "dupe": {
        "id": "D3137",
        "name": "Mainz / Lerchenberg ",
        "lat": 49.9656,
        "long": 8.2139
      }
    },
    {
      "new_entry": "{\"name\": {\"en\": \"Gau-algesheim\"}, \"country\": \"DE\", \"region\": \"RP\", \"identifiers\": {\"national\": \"14046\"}, \"location\": {\"latitude\": 49.9512, \"longitude\": 8.0074, \"elevation\": 116}, \"timezone\": \"Europe/Berlin\"}",
      "dupe": {
        "id": "10628",
        "name": "Geisenheim",
        "lat": 49.9833,
        "long": 7.95
      }
    },
    {
      "new_entry": "{\"name\": {\"en\": \"Freinsheim\"}, \"country\": \"DE\", \"region\": \"RP\", \"identifiers\": {\"national\": \"14047\"}, \"location\": {\"latitude\": 49.5093, \"longitude\": 8.1997, \"elevation\": 119}, \"timezone\": \"Europe/Berlin\"}",
      "dupe": {
        "id": "EDRF0",
        "name": "Bad Durkheim / Ungstein",
        "lat": 49.4742,
        "long": 8.1972
      }
    },
    {
      "new_entry": "{\"name\": {\"en\": \"Weisenheim\"}, \"country\": \"DE\", \"region\": \"RP\", \"identifiers\": {\"national\": \"14050\"}, \"location\": {\"latitude\": 49.5206, \"longitude\": 8.2545, \"elevation\": 130}, \"timezone\": \"Europe/Berlin\"}",
      "dupe": {
        "id": "EDRF0",
        "name": "Bad Durkheim / Ungstein",
        "lat": 49.4742,
        "long": 8.1972
      }
    },
    {
      "new_entry": "{\"name\": {\"en\": \"Bergzabern, Bad/pfalz\"}, \"country\": \"DE\", \"region\": \"RP\", \"identifiers\": {\"national\": \"14054\"}, \"location\": {\"latitude\": 49.1077, \"longitude\": 7.997, \"elevation\": 213}, \"timezone\": \"Europe/Berlin\"}",
      "dupe": {
        "id": "D0377",
        "name": "Bergzabern, Bad",
        "lat": 49.107,
        "long": 7.9967
      }
    },
    {
      "new_entry": "{\"name\": {\"en\": \"Schweigen-rechtenbach\"}, \"country\": \"DE\", \"region\": \"RP\", \"identifiers\": {\"national\": \"14055\"}, \"location\": {\"latitude\": 49.054, \"longitude\": 7.9701, \"elevation\": 198}, \"timezone\": \"Europe/Berlin\"}",
      "dupe": {
        "id": "D0377",
        "name": "Bergzabern, Bad",
        "lat": 49.107,
        "long": 7.9967
      }
    },
    {
      "new_entry": "{\"name\": {\"en\": \"Gr\\u00fcnstadt-sausenheim\"}, \"country\": \"DE\", \"region\": \"RP\", \"identifiers\": {\"national\": \"14057\"}, \"location\": {\"latitude\": 49.544, \"longitude\": 8.1607, \"elevation\": 186}, \"timezone\": \"Europe/Berlin\"}",
      "dupe": {
        "id": "D1870",
        "name": "Grünstadt",
        "lat": 49.5665,
        "long": 8.178
      }
    },
    {
      "new_entry": "{\"name\": {\"en\": \"D\\u00fcrkheim, Bad-trift\"}, \"country\": \"DE\", \"region\": \"RP\", \"identifiers\": {\"national\": \"14058\"}, \"location\": {\"latitude\": 49.4624, \"longitude\": 8.2028, \"elevation\": 128}, \"timezone\": \"Europe/Berlin\"}",
      "dupe": {
        "id": "EDRF0",
        "name": "Bad Durkheim / Ungstein",
        "lat": 49.4742,
        "long": 8.1972
      }
    },
    {
      "new_entry": "{\"name\": {\"en\": \"Ellerstadt/pfalz\"}, \"country\": \"DE\", \"region\": \"RP\", \"identifiers\": {\"national\": \"14061\"}, \"location\": {\"latitude\": 49.4622, \"longitude\": 8.2692, \"elevation\": 98}, \"timezone\": \"Europe/Berlin\"}",
      "dupe": {
        "id": "EDRF0",
        "name": "Bad Durkheim / Ungstein",
        "lat": 49.4742,
        "long": 8.1972
      }
    },
    {
      "new_entry": "{\"name\": {\"en\": \"Bingen-gaulsheim\"}, \"country\": \"DE\", \"region\": \"RP\", \"identifiers\": {\"national\": \"14063\"}, \"location\": {\"latitude\": 49.9566, \"longitude\": 7.9642, \"elevation\": 88}, \"timezone\": \"Europe/Berlin\"}",
      "dupe": {
        "id": "10628",
        "name": "Geisenheim",
        "lat": 49.9833,
        "long": 7.95
      }
    },
    {
      "new_entry": "{\"name\": {\"en\": \"Offstein\"}, \"country\": \"DE\", \"region\": \"RP\", \"identifiers\": {\"national\": \"14065\"}, \"location\": {\"latitude\": 49.6057, \"longitude\": 8.2531, \"elevation\": 115}, \"timezone\": \"Europe/Berlin\"}",
      "dupe": {
        "id": "D1870",
        "name": "Grünstadt",
        "lat": 49.5665,
        "long": 8.178
      }
    },
    {
      "new_entry": "{\"name\": {\"en\": \"Zellertal\"}, \"country\": \"DE\", \"region\": \"RP\", \"identifiers\": {\"national\": \"14069\"}, \"location\": {\"latitude\": 49.6461, \"longitude\": 8.1482, \"elevation\": 197}, \"timezone\": \"Europe/Berlin\"}",
      "dupe": {
        "id": "D1870",
        "name": "Grünstadt",
        "lat": 49.5665,
        "long": 8.178
      }
    },
    {
      "new_entry": "{\"name\": {\"en\": \"Nierstein\"}, \"country\": \"DE\", \"region\": \"RP\", \"identifiers\": {\"national\": \"14070\"}, \"location\": {\"latitude\": 49.8847, \"longitude\": 8.3374, \"elevation\": 89}, \"timezone\": \"Europe/Berlin\"}",
      "dupe": {
        "id": "D6100",
        "name": "Hahnheim",
        "lat": 49.8626,
        "long": 8.2311
      }
    },
    {
      "new_entry": "{\"name\": {\"en\": \"Kanzem\"}, \"country\": \"DE\", \"region\": \"RP\", \"identifiers\": {\"national\": \"14073\"}, \"location\": {\"latitude\": 49.6715, \"longitude\": 6.5784, \"elevation\": 151}, \"timezone\": \"Europe/Berlin\"}",
      "dupe": {
        "id": "D5099",
        "name": "Trier-Zewen",
        "lat": 49.7326,
        "long": 6.6131
      }
    },
    {
      "new_entry": "{\"name\": {\"en\": \"Brauneberg\"}, \"country\": \"DE\", \"region\": \"RP\", \"identifiers\": {\"national\": \"14075\"}, \"location\": {\"latitude\": 49.9145, \"longitude\": 6.9979, \"elevation\": 126}, \"timezone\": \"Europe/Berlin\"}",
      "dupe": {
        "id": "D5635",
        "name": "Wittlich",
        "lat": 49.9617,
        "long": 6.9287
      }
    },
    {
      "new_entry": "{\"name\": {\"en\": \"Zeltingen\"}, \"country\": \"DE\", \"region\": \"RP\", \"identifiers\": {\"national\": \"14076\"}, \"location\": {\"latitude\": 49.9524, \"longitude\": 7.0265, \"elevation\": 212}, \"timezone\": \"Europe/Berlin\"}",
      "dupe": {
        "id": "10617",
        "name": "Traben-Trarbach",
        "lat": 49.9667,
        "long": 7.1167
      }
    },
    {
      "new_entry": "{\"name\": {\"en\": \"Winningen/weinberg\"}, \"country\": \"DE\", \"region\": \"RP\", \"identifiers\": {\"national\": \"14079\"}, \"location\": {\"latitude\": 50.3126, \"longitude\": 7.5018, \"elevation\": 85}, \"timezone\": \"Europe/Berlin\"}",
      "dupe": {
        "id": "10516",
        "name": "Koblenz / Lützel",
        "lat": 50.3733,
        "long": 7.5844
      }
    },
    {
      "new_entry": "{\"name\": {\"en\": \"Mayscho\\u00df\"}, \"country\": \"DE\", \"region\": \"RP\", \"identifiers\": {\"national\": \"14080\"}, \"location\": {\"latitude\": 50.5126, \"longitude\": 7.013, \"elevation\": 156}, \"timezone\": \"Europe/Berlin\"}",
      "dupe": {
        "id": "D3490",
        "name": "Neuenahr, Bad-Ahrweiler",
        "lat": 50.5346,
        "long": 7.0853
      }
    },
    {
      "new_entry": "{\"name\": {\"en\": \"Flomborn\"}, \"country\": \"DE\", \"region\": \"RP\", \"identifiers\": {\"national\": \"14085\"}, \"location\": {\"latitude\": 49.695, \"longitude\": 8.1466, \"elevation\": 251}, \"timezone\": \"Europe/Berlin\"}",
      "dupe": {
        "id": "D0150",
        "name": "Alzey",
        "lat": 49.7273,
        "long": 8.1164
      }
    },
    {
      "new_entry": "{\"name\": {\"en\": \"Worms-leiselheim\"}, \"country\": \"DE\", \"region\": \"RP\", \"identifiers\": {\"national\": \"14090\"}, \"location\": {\"latitude\": 49.6387, \"longitude\": 8.2969, \"elevation\": 111}, \"timezone\": \"Europe/Berlin\"}",
      "dupe": {
        "id": "EDFV0",
        "name": "Worms / Nonnenhof",
        "lat": 49.6075,
        "long": 8.3678
      }
    },
    {
      "new_entry": "{\"name\": {\"en\": \"Drais-finthen\"}, \"country\": \"DE\", \"region\": \"RP\", \"identifiers\": {\"national\": \"14093\"}, \"location\": {\"latitude\": 49.9719, \"longitude\": 8.186, \"elevation\": 211}, \"timezone\": \"Europe/Berlin\"}",
      "dupe": {
        "id": "D3137",
        "name": "Mainz / Lerchenberg ",
        "lat": 49.9656,
        "long": 8.2139
      }
    },
    {
      "new_entry": "{\"name\": {\"en\": \"Deidesheim-niederkirchen\"}, \"country\": \"DE\", \"region\": \"RP\", \"identifiers\": {\"national\": \"14094\"}, \"location\": {\"latitude\": 49.4267, \"longitude\": 8.2229, \"elevation\": 109}, \"timezone\": \"Europe/Berlin\"}",
      "dupe": {
        "id": "EDRF0",
        "name": "Bad Durkheim / Ungstein",
        "lat": 49.4742,
        "long": 8.1972
      }
    },
    {
      "new_entry": "{\"name\": {\"en\": \"Mayen/nette\"}, \"country\": \"DE\", \"region\": \"RP\", \"identifiers\": {\"national\": \"14099\"}, \"location\": {\"latitude\": 50.3248, \"longitude\": 7.2303, \"elevation\": 225}, \"timezone\": \"Europe/Berlin\"}",
      "dupe": {
        "id": "D3969",
        "name": "Polch, Kr. Mayen-Koblenz",
        "lat": 50.3051,
        "long": 7.3108
      }
    },
    {
      "new_entry": "{\"name\": {\"en\": \"Piesport/mosel\"}, \"country\": \"DE\", \"region\": \"RP\", \"identifiers\": {\"national\": \"14101\"}, \"location\": {\"latitude\": 49.8858, \"longitude\": 6.9111, \"elevation\": 139}, \"timezone\": \"Europe/Berlin\"}",
      "dupe": {
        "id": "D5635",
        "name": "Wittlich",
        "lat": 49.9617,
        "long": 6.9287
      }
    },
    {
      "new_entry": "{\"name\": {\"en\": \"K\\u00f6rperich-gaytalpark\"}, \"country\": \"DE\", \"region\": \"RP\", \"identifiers\": {\"national\": \"14109\"}, \"location\": {\"latitude\": 49.9357, \"longitude\": 6.2523, \"elevation\": 290}, \"timezone\": \"Europe/Berlin\"}",
      "dupe": {
        "id": "D1964",
        "name": "Olsdorf",
        "lat": 49.9445,
        "long": 6.3821
      }
    },
    {
      "new_entry": "{\"name\": {\"en\": \"Falkenberg (grenzschichtmessfeld)\"}, \"country\": \"DE\", \"region\": \"BB\", \"identifiers\": {\"national\": \"14138\"}, \"location\": {\"latitude\": 52.1655, \"longitude\": 14.1224, \"elevation\": 73}, \"timezone\": \"Europe/Berlin\"}",
      "dupe": {
        "id": "10393",
        "name": "Lindenberg",
        "lat": 52.2167,
        "long": 14.1167
      }
    },
    {
      "new_entry": "{\"name\": {\"en\": \"Oberhausen-buschhausen\"}, \"country\": \"DE\", \"region\": \"NW\", \"identifiers\": {\"national\": \"14142\"}, \"location\": {\"latitude\": 51.5059, \"longitude\": 6.8351, \"elevation\": 33}, \"timezone\": \"Europe/Berlin\"}",
      "dupe": {
        "id": "D0989",
        "name": "Dinslaken",
        "lat": 51.5765,
        "long": 6.7849
      }
    },
    {
      "new_entry": "{\"name\": {\"en\": \"L\\u00fcnen/seseke\"}, \"country\": \"DE\", \"region\": \"NW\", \"identifiers\": {\"national\": \"14143\"}, \"location\": {\"latitude\": 51.6073, \"longitude\": 7.5309, \"elevation\": 54}, \"timezone\": \"Europe/Berlin\"}",
      "dupe": {
        "id": "D3696",
        "name": "Waltrop-Abdinghof",
        "lat": 51.5966,
        "long": 7.4049
      }
    },
    {
      "new_entry": "{\"name\": {\"en\": \"Castrop-rauxel-habinghorst\"}, \"country\": \"DE\", \"region\": \"NW\", \"identifiers\": {\"national\": \"14144\"}, \"location\": {\"latitude\": 51.5801, \"longitude\": 7.315, \"elevation\": 56}, \"timezone\": \"Europe/Berlin\"}",
      "dupe": {
        "id": "D3696",
        "name": "Waltrop-Abdinghof",
        "lat": 51.5966,
        "long": 7.4049
      }
    },
    {
      "new_entry": "{\"name\": {\"en\": \"Dortmund/oespeler Bach\"}, \"country\": \"DE\", \"region\": \"NW\", \"identifiers\": {\"national\": \"14145\"}, \"location\": {\"latitude\": 51.514, \"longitude\": 7.3817, \"elevation\": 71}, \"timezone\": \"Europe/Berlin\"}",
      "dupe": {
        "id": "D3696",
        "name": "Waltrop-Abdinghof",
        "lat": 51.5966,
        "long": 7.4049
      }
    },
    {
      "new_entry": "{\"name\": {\"en\": \"H\\u00fcnxe\"}, \"country\": \"DE\", \"region\": \"NW\", \"identifiers\": {\"national\": \"14148\"}, \"location\": {\"latitude\": 51.6531, \"longitude\": 6.7581, \"elevation\": 27}, \"timezone\": \"Europe/Berlin\"}",
      "dupe": {
        "id": "D0989",
        "name": "Dinslaken",
        "lat": 51.5765,
        "long": 6.7849
      }
    },
    {
      "new_entry": "{\"name\": {\"en\": \"Lembeck\"}, \"country\": \"DE\", \"region\": \"NW\", \"identifiers\": {\"national\": \"14149\"}, \"location\": {\"latitude\": 51.7536, \"longitude\": 6.9985, \"elevation\": 53}, \"timezone\": \"Europe/Berlin\"}",
      "dupe": {
        "id": "D4150",
        "name": "Reken-Groß Reken",
        "lat": 51.8118,
        "long": 7.0907
      }
    },
    {
      "new_entry": "{\"name\": {\"en\": \"Westerholt\"}, \"country\": \"DE\", \"region\": \"NW\", \"identifiers\": {\"national\": \"14150\"}, \"location\": {\"latitude\": 51.6123, \"longitude\": 7.0864, \"elevation\": 67}, \"timezone\": \"Europe/Berlin\"}",
      "dupe": {
        "id": "D1595",
        "name": "Gelsenkirchen-Buer",
        "lat": 51.5762,
        "long": 7.0652
      }
    },
    {
      "new_entry": "{\"name\": {\"en\": \"Aachen-brand (ka)\"}, \"country\": \"DE\", \"region\": \"NW\", \"identifiers\": {\"national\": \"14152\"}, \"location\": {\"latitude\": 50.7495, \"longitude\": 6.1863, \"elevation\": 222}, \"timezone\": \"Europe/Berlin\"}",
      "dupe": {
        "id": "10501",
        "name": "Aachen",
        "lat": 50.7833,
        "long": 6.1
      }
    },
    {
      "new_entry": "{\"name\": {\"en\": \"H\\u00fcckelhoven-ratheim\"}, \"country\": \"DE\", \"region\": \"NW\", \"identifiers\": {\"national\": \"14153\"}, \"location\": {\"latitude\": 51.0645, \"longitude\": 6.1711, \"elevation\": 40}, \"timezone\": \"Europe/Berlin\"}",
      "dupe": {
        "id": "D2110",
        "name": "Heinsberg-Schleiden",
        "lat": 51.0411,
        "long": 6.1042
      }
    },
    {
      "new_entry": "{\"name\": {\"en\": \"Haan-gruiten\"}, \"country\": \"DE\", \"region\": \"NW\", \"identifiers\": {\"national\": \"14155\"}, \"location\": {\"latitude\": 51.2278, \"longitude\": 7.0013, \"elevation\": 117}, \"timezone\": \"Europe/Berlin\"}",
      "dupe": {
        "id": "D5717",
        "name": "Wuppertal-Buchenhofen",
        "lat": 51.2256,
        "long": 7.1052
      }
    },
    {
      "new_entry": "{\"name\": {\"en\": \"Langenfeld\"}, \"country\": \"DE\", \"region\": \"NW\", \"identifiers\": {\"national\": \"14158\"}, \"location\": {\"latitude\": 51.1192, \"longitude\": 6.9311, \"elevation\": 46}, \"timezone\": \"Europe/Berlin\"}",
      "dupe": {
        "id": "D1024",
        "name": "Dormagen-Zons",
        "lat": 51.1157,
        "long": 6.851
      }
    },
    {
      "new_entry": "{\"name\": {\"en\": \"Velbert\"}, \"country\": \"DE\", \"region\": \"NW\", \"identifiers\": {\"national\": \"14159\"}, \"location\": {\"latitude\": 51.3465, \"longitude\": 7.0225, \"elevation\": 173}, \"timezone\": \"Europe/Berlin\"}",
      "dupe": {
        "id": "10410",
        "name": "Essen",
        "lat": 51.4,
        "long": 6.9667
      }
    },
    {
      "new_entry": "{\"name\": {\"en\": \"Goch (kl\\u00e4rwerk)\"}, \"country\": \"DE\", \"region\": \"NW\", \"identifiers\": {\"national\": \"14176\"}, \"location\": {\"latitude\": 51.6901, \"longitude\": 6.1502, \"elevation\": 15}, \"timezone\": \"Europe/Berlin\"}",
      "dupe": {
        "id": "D2629",
        "name": "Kleve",
        "lat": 51.7612,
        "long": 6.0954
      }
    },
    {
      "new_entry": "{\"name\": {\"en\": \"Geldern (kl\\u00e4rwerk)\"}, \"country\": \"DE\", \"region\": \"NW\", \"identifiers\": {\"national\": \"14177\"}, \"location\": {\"latitude\": 51.5426, \"longitude\": 6.315, \"elevation\": 24}, \"timezone\": \"Europe/Berlin\"}",
      "dupe": {
        "id": "D1590",
        "name": "Geldern-Walbeck",
        "lat": 51.4942,
        "long": 6.2463
      }
    },
    {
      "new_entry": "{\"name\": {\"en\": \"Grefrath (kl\\u00e4rwerk)\"}, \"country\": \"DE\", \"region\": \"NW\", \"identifiers\": {\"national\": \"14178\"}, \"location\": {\"latitude\": 51.3454, \"longitude\": 6.3546, \"elevation\": 35}, \"timezone\": \"Europe/Berlin\"}",
      "dupe": {
        "id": "D5064",
        "name": "Tönisvorst",
        "lat": 51.2897,
        "long": 6.4437
      }
    },
    {
      "new_entry": "{\"name\": {\"en\": \"Korschenbroich (kl\\u00e4rwerk)\"}, \"country\": \"DE\", \"region\": \"NW\", \"identifiers\": {\"national\": \"14179\"}, \"location\": {\"latitude\": 51.1968, \"longitude\": 6.495, \"elevation\": 42}, \"timezone\": \"Europe/Berlin\"}",
      "dupe": {
        "id": "10403",
        "name": "Mönchengladbach",
        "lat": 51.2333,
        "long": 6.5
      }
    },
    {
      "new_entry": "{\"name\": {\"en\": \"Leverkusen (kl\\u00e4rwerk)\"}, \"country\": \"DE\", \"region\": \"NW\", \"identifiers\": {\"national\": \"14180\"}, \"location\": {\"latitude\": 51.0469, \"longitude\": 6.9729, \"elevation\": 43}, \"timezone\": \"Europe/Berlin\"}",
      "dupe": {
        "id": "D2968",
        "name": "Köln-Stammheim",
        "lat": 50.9894,
        "long": 6.9777
      }
    },
    {
      "new_entry": "{\"name\": {\"en\": \"Wuppertal-buchenhofen/wupper\"}, \"country\": \"DE\", \"region\": \"NW\", \"identifiers\": {\"national\": \"14184\"}, \"location\": {\"latitude\": 51.2242, \"longitude\": 7.107, \"elevation\": 126}, \"timezone\": \"Europe/Berlin\"}",
      "dupe": {
        "id": "D5717",
        "name": "Wuppertal-Buchenhofen",
        "lat": 51.2256,
        "long": 7.1052
      }
    },
    {
      "new_entry": "{\"name\": {\"en\": \"Lichtenau-ebbinghausen (hrb)\"}, \"country\": \"DE\", \"region\": \"NW\", \"identifiers\": {\"national\": \"14185\"}, \"location\": {\"latitude\": 51.605, \"longitude\": 8.8175, \"elevation\": 304}, \"timezone\": \"Europe/Berlin\"}",
      "dupe": {
        "id": "D5699",
        "name": "Wünnenberg-Eilern",
        "lat": 51.5427,
        "long": 8.7784
      }
    },
    {
      "new_entry": "{\"name\": {\"en\": \"Gollentaler Grund (hrb)\"}, \"country\": \"DE\", \"region\": \"NW\", \"identifiers\": {\"national\": \"14186\"}, \"location\": {\"latitude\": 51.5319, \"longitude\": 8.7289, \"elevation\": 291}, \"timezone\": \"Europe/Berlin\"}",
      "dupe": {
        "id": "D5699",
        "name": "Wünnenberg-Eilern",
        "lat": 51.5427,
        "long": 8.7784
      }
    },
    {
      "new_entry": "{\"name\": {\"en\": \"Eging Am See-rohrbachholz\"}, \"country\": \"DE\", \"region\": \"BY\", \"identifiers\": {\"national\": \"14301\"}, \"location\": {\"latitude\": 48.73, \"longitude\": 13.2741, \"elevation\": 415}, \"timezone\": \"Europe/Berlin\"}",
      "dupe": {
        "id": "D4354",
        "name": "Saldenburg-Entschenreuth",
        "lat": 48.7832,
        "long": 13.3146
      }
    },
    {
      "new_entry": "{\"name\": {\"en\": \"Aachen-orsbach\"}, \"country\": \"DE\", \"region\": \"NW\", \"identifiers\": {\"national\": \"15000\"}, \"location\": {\"latitude\": 50.7983, \"longitude\": 6.0244, \"elevation\": 231}, \"timezone\": \"Europe/Berlin\"}",
      "dupe": {
        "id": "10501",
        "name": "Aachen",
        "lat": 50.7833,
        "long": 6.1
      }
    },
    {
      "new_entry": "{\"name\": {\"en\": \"Malsch (kl\\u00e4rwerk)\"}, \"country\": \"DE\", \"region\": \"BW\", \"identifiers\": {\"national\": \"15013\"}, \"location\": {\"latitude\": 48.8946, \"longitude\": 8.3379, \"elevation\": 119}, \"timezone\": \"Europe/Berlin\"}",
      "dupe": {
        "id": "10731",
        "name": "Rheinstetten",
        "lat": 48.9736,
        "long": 8.3311
      }
    },
    {
      "new_entry": "{\"name\": {\"en\": \"Gschwend-frickenhofen\"}, \"country\": \"DE\", \"region\": \"BW\", \"identifiers\": {\"national\": \"15015\"}, \"location\": {\"latitude\": 48.9271, \"longitude\": 9.7973, \"elevation\": 509}, \"timezone\": \"Europe/Berlin\"}",
      "dupe": {
        "id": "10747",
        "name": "Kaisersbach-Cronhütte",
        "lat": 48.9181,
        "long": 9.6883
      }
    },
    {
      "new_entry": "{\"name\": {\"en\": \"Riedelberg\"}, \"country\": \"DE\", \"region\": \"RP\", \"identifiers\": {\"national\": \"15156\"}, \"location\": {\"latitude\": 49.175, \"longitude\": 7.4585, \"elevation\": 340}, \"timezone\": \"Europe/Berlin\"}",
      "dupe": {
        "id": "10714",
        "name": "Zweibrücken Airfield",
        "lat": 49.2167,
        "long": 7.4
      }
    },
    {
      "new_entry": "{\"name\": {\"en\": \"Donaueschingen-wolterdingen\"}, \"country\": \"DE\", \"region\": \"BW\", \"identifiers\": {\"national\": \"15170\"}, \"location\": {\"latitude\": 47.9725, \"longitude\": 8.4157, \"elevation\": 718}, \"timezone\": \"Europe/Berlin\"}",
      "dupe": {
        "id": "10912",
        "name": "Donaueschingen / Villingen",
        "lat": 47.9667,
        "long": 8.5167
      }
    },
    {
      "new_entry": "{\"name\": {\"en\": \"Liebenscheid\"}, \"country\": \"DE\", \"region\": \"RP\", \"identifiers\": {\"national\": \"15249\"}, \"location\": {\"latitude\": 50.6936, \"longitude\": 8.0884, \"elevation\": 560}, \"timezone\": \"Europe/Berlin\"}",
      "dupe": {
        "id": "10528",
        "name": "Siegerland",
        "lat": 50.7167,
        "long": 8.0833
      }
    },
    {
      "new_entry": "{\"name\": {\"en\": \"Ulm-m\\u00e4hringen\"}, \"country\": \"DE\", \"region\": \"BW\", \"identifiers\": {\"national\": \"15444\"}, \"location\": {\"latitude\": 48.4418, \"longitude\": 9.9216, \"elevation\": 593}, \"timezone\": \"Europe/Berlin\"}",
      "dupe": {
        "id": "10838",
        "name": "Ulm",
        "lat": 48.3833,
        "long": 9.95
      }
    },
    {
      "new_entry": "{\"name\": {\"en\": \"Baumholder (kl\\u00e4ranl.)\"}, \"country\": \"DE\", \"region\": \"RP\", \"identifiers\": {\"national\": \"15448\"}, \"location\": {\"latitude\": 49.6185, \"longitude\": 7.308, \"elevation\": 411}, \"timezone\": \"Europe/Berlin\"}",
      "dupe": {
        "id": "10619",
        "name": "Baumholder United States Army Air Field",
        "lat": 49.65,
        "long": 7.3
      }
    },
    {
      "new_entry": "{\"name\": {\"en\": \"Heidelberg-kurpfalzhof\"}, \"country\": \"DE\", \"region\": \"BW\", \"identifiers\": {\"national\": \"15514\"}, \"location\": {\"latitude\": 49.3767, \"longitude\": 8.6177, \"elevation\": 106}, \"timezone\": \"Europe/Berlin\"}",
      "dupe": {
        "id": "10734",
        "name": "Heidelberg",
        "lat": 49.4,
        "long": 8.65
      }
    },
    {
      "new_entry": "{\"name\": {\"en\": \"H\\u00f6hein\\u00f6d\"}, \"country\": \"DE\", \"region\": \"RP\", \"identifiers\": {\"national\": \"15523\"}, \"location\": {\"latitude\": 49.2866, \"longitude\": 7.5958, \"elevation\": 405}, \"timezone\": \"Europe/Berlin\"}",
      "dupe": {
        "id": "EDIV0",
        "name": "Pirmasens",
        "lat": 49.2167,
        "long": 7.6167
      }
    },
    {
      "new_entry": "{\"name\": {\"en\": \"Lingen-baccum\"}, \"country\": \"DE\", \"region\": \"NI\", \"identifiers\": {\"national\": \"15813\"}, \"location\": {\"latitude\": 52.5126, \"longitude\": 7.4131, \"elevation\": 40}, \"timezone\": \"Europe/Berlin\"}",
      "dupe": {
        "id": "10305",
        "name": "Lingen",
        "lat": 52.5167,
        "long": 7.3
      }
    },
    {
      "new_entry": "{\"name\": {\"en\": \"Gauchsberg\"}, \"country\": \"DE\", \"region\": \"RP\", \"identifiers\": {\"national\": \"15821\"}, \"location\": {\"latitude\": 49.8703, \"longitude\": 7.689, \"elevation\": 387}, \"timezone\": \"Europe/Berlin\"}",
      "dupe": {
        "id": "10626",
        "name": "Pferdsfeld",
        "lat": 49.85,
        "long": 7.6
      }
    },
    {
      "new_entry": "{\"name\": {\"en\": \"Diepenau-lavelsloh (kl\\u00e4ranlage)\"}, \"country\": \"DE\", \"region\": \"NI\", \"identifiers\": {\"national\": \"15831\"}, \"location\": {\"latitude\": 52.4197, \"longitude\": 8.7303, \"elevation\": 44}, \"timezone\": \"Europe/Berlin\"}",
      "dupe": {
        "id": "D4063",
        "name": "Rahden-Kleinendorf",
        "lat": 52.4461,
        "long": 8.5906
      }
    },
    {
      "new_entry": "{\"name\": {\"en\": \"Harxb\\u00fcttel (pegel)\"}, \"country\": \"DE\", \"region\": \"NI\", \"identifiers\": {\"national\": \"15833\"}, \"location\": {\"latitude\": 52.3366, \"longitude\": 10.4884, \"elevation\": 65}, \"timezone\": \"Europe/Berlin\"}",
      "dupe": {
        "id": "10348",
        "name": "Braunschweig",
        "lat": 52.3,
        "long": 10.45
      }
    },
    {
      "new_entry": "{\"name\": {\"en\": \"Neuenkirchen-v\\u00f6rden (kl\\u00e4ranlage)\"}, \"country\": \"DE\", \"region\": \"NI\", \"identifiers\": {\"national\": \"15838\"}, \"location\": {\"latitude\": 52.5023, \"longitude\": 8.0525, \"elevation\": 39}, \"timezone\": \"Europe/Berlin\"}",
      "dupe": {
        "id": "D0078",
        "name": "Alfhausen",
        "lat": 52.4853,
        "long": 7.9126
      }
    },
    {
      "new_entry": "{\"name\": {\"en\": \"Seboldshausen\"}, \"country\": \"DE\", \"region\": \"NI\", \"identifiers\": {\"national\": \"15843\"}, \"location\": {\"latitude\": 51.863, \"longitude\": 10.0662, \"elevation\": 144}, \"timezone\": \"Europe/Berlin\"}",
      "dupe": {
        "id": "D4651",
        "name": "Seesen",
        "lat": 51.904,
        "long": 10.1885
      }
    },
    {
      "new_entry": "{\"name\": {\"en\": \"Suderburg (hochschule)\"}, \"country\": \"DE\", \"region\": \"NI\", \"identifiers\": {\"national\": \"15845\"}, \"location\": {\"latitude\": 52.8981, \"longitude\": 10.4438, \"elevation\": 68}, \"timezone\": \"Europe/Berlin\"}",
      "dupe": {
        "id": "D5146",
        "name": "Uelzen",
        "lat": 52.9414,
        "long": 10.5289
      }
    },
    {
      "new_entry": "{\"name\": {\"en\": \"Wascheid\"}, \"country\": \"DE\", \"region\": \"RP\", \"identifiers\": {\"national\": \"15987\"}, \"location\": {\"latitude\": 50.2666, \"longitude\": 6.3782, \"elevation\": 691}, \"timezone\": \"Europe/Berlin\"}",
      "dupe": {
        "id": "D4508",
        "name": "Schneifelforsthaus",
        "lat": 50.2968,
        "long": 6.4194
      }
    },
    {
      "new_entry": "{\"name\": {\"en\": \"Heydenhof\"}, \"country\": \"DE\", \"region\": \"MV\", \"identifiers\": {\"national\": \"16112\"}, \"location\": {\"latitude\": 53.8683, \"longitude\": 13.2686, \"elevation\": 23}, \"timezone\": \"Europe/Berlin\"}",
      "dupe": {
        "id": "D5003",
        "name": "Schmarsow",
        "lat": 53.8754,
        "long": 13.2101
      }
    },
    {
      "new_entry": "{\"name\": {\"en\": \"Neuwied-torney\"}, \"country\": \"DE\", \"region\": \"RP\", \"identifiers\": {\"national\": \"19100\"}, \"location\": {\"latitude\": 50.4563, \"longitude\": 7.4962, \"elevation\": 97}, \"timezone\": \"Europe/Berlin\"}",
      "dupe": {
        "id": "D0161",
        "name": "Andernach",
        "lat": 50.4237,
        "long": 7.4202
      }
    },
    {
      "new_entry": "{\"name\": {\"en\": \"Hildesheim Flugplatz\"}, \"country\": \"DE\", \"region\": \"NI\", \"identifiers\": {\"national\": \"19126\"}, \"location\": {\"latitude\": 52.1803, \"longitude\": 9.9535, \"elevation\": 88}, \"timezone\": \"Europe/Berlin\"}",
      "dupe": {
        "id": "10337",
        "name": "Hildesheim",
        "lat": 52.1833,
        "long": 9.95
      }
    },
    {
      "new_entry": "{\"name\": {\"en\": \"Zeulenroda/greiz\"}, \"country\": \"DE\", \"region\": \"TH\", \"identifiers\": {\"national\": \"19138\"}, \"location\": {\"latitude\": 50.6683, \"longitude\": 11.9778, \"elevation\": 358}, \"timezone\": \"Europe/Berlin\"}",
      "dupe": {
        "id": "D7419",
        "name": "Langenwetzendorf-Göttendorf",
        "lat": 50.661,
        "long": 12.0756
      }
    },
    {
      "new_entry": "{\"name\": {\"en\": \"Hasenkrug-hardebek\"}, \"country\": \"DE\", \"region\": \"SH\", \"identifiers\": {\"national\": \"19171\"}, \"location\": {\"latitude\": 54.0038, \"longitude\": 9.8553, \"elevation\": 13}, \"timezone\": \"Europe/Berlin\"}",
      "dupe": {
        "id": "D7427",
        "name": "Padenstedt (Pony-Park)",
        "lat": 54.0188,
        "long": 9.9255
      }
    },
    {
      "new_entry": "{\"name\": {\"en\": \"Hornbach/s\\u00fcdwestpfalz\"}, \"country\": \"DE\", \"region\": \"RP\", \"identifiers\": {\"national\": \"19244\"}, \"location\": {\"latitude\": 49.1939, \"longitude\": 7.3714, \"elevation\": 300}, \"timezone\": \"Europe/Berlin\"}",
      "dupe": {
        "id": "10714",
        "name": "Zweibrücken Airfield",
        "lat": 49.2167,
        "long": 7.4
      }
    },
    {
      "new_entry": "{\"name\": {\"en\": \"K\\u00f6sfeld\"}, \"country\": \"DE\", \"region\": \"BY\", \"identifiers\": {\"national\": \"19272\"}, \"location\": {\"latitude\": 50.298, \"longitude\": 10.9242, \"elevation\": 303}, \"timezone\": \"Europe/Berlin\"}",
      "dupe": {
        "id": "D0867",
        "name": "Lautertal-Oberlauter",
        "lat": 50.3066,
        "long": 10.9679
      }
    },
    {
      "new_entry": "{\"name\": {\"en\": \"Speichersdorf\"}, \"country\": \"DE\", \"region\": \"BY\", \"identifiers\": {\"national\": \"19299\"}, \"location\": {\"latitude\": 49.8713, \"longitude\": 11.7883, \"elevation\": 463}, \"timezone\": \"Europe/Berlin\"}",
      "dupe": {
        "id": "D2556",
        "name": "Kemnath",
        "lat": 49.8672,
        "long": 11.881
      }
    },
    {
      "new_entry": "{\"name\": {\"en\": \"Dromersheim\"}, \"country\": \"DE\", \"region\": \"RP\", \"identifiers\": {\"national\": \"19304\"}, \"location\": {\"latitude\": 49.9152, \"longitude\": 7.9555, \"elevation\": 123}, \"timezone\": \"Europe/Berlin\"}",
      "dupe": {
        "id": "10628",
        "name": "Geisenheim",
        "lat": 49.9833,
        "long": 7.95
      }
    },
    {
      "new_entry": "{\"name\": {\"en\": \"Frankenblick-rauenstein\"}, \"country\": \"DE\", \"region\": \"TH\", \"identifiers\": {\"national\": \"19361\"}, \"location\": {\"latitude\": 50.4159, \"longitude\": 11.0437, \"elevation\": 540}, \"timezone\": \"Europe/Berlin\"}",
      "dupe": {
        "id": "D3248",
        "name": "Frankenblick-Mengersgereuth-Hämmern",
        "lat": 50.3904,
        "long": 11.1324
      }
    },
    {
      "new_entry": "{\"name\": {\"en\": \"Treuchtlingen\"}, \"country\": \"DE\", \"region\": \"BY\", \"identifiers\": {\"national\": \"19363\"}, \"location\": {\"latitude\": 48.9532, \"longitude\": 10.9135, \"elevation\": 409}, \"timezone\": \"Europe/Berlin\"}",
      "dupe": {
        "id": "D5440",
        "name": "Weißenburg-Emetzheim",
        "lat": 49.0116,
        "long": 10.9308
      }
    },
    {
      "new_entry": "{\"name\": {\"en\": \"Annweiler Am Trifels-stein\"}, \"country\": \"DE\", \"region\": \"RP\", \"identifiers\": {\"national\": \"19366\"}, \"location\": {\"latitude\": 49.1505, \"longitude\": 7.9174, \"elevation\": 242}, \"timezone\": \"Europe/Berlin\"}",
      "dupe": {
        "id": "D0377",
        "name": "Bergzabern, Bad",
        "lat": 49.107,
        "long": 7.9967
      }
    }
  ]